[{"model": "PersonenDB.tbl_orte", "fields": {"osm_id": 109166, "lon": "16.3712159737999", "ort_namekurz": "", "lat": "48.2202097", "ort_namelang": "Wien, \u00d6sterreich (Bundesland / Stadtgrenzen)", "osm_type": "relation"}, "pk": 1}, {"model": "PersonenDB.tbl_orte", "fields": {"osm_id": 1441683, "lon": "16.3606865338016", "ort_namekurz": "", "lat": "48.2131302", "ort_namelang": "Universit\u00e4t Wien, 1, Universit\u00e4tsring, Schottenviertel, KG Innere Stadt, Innere Stadt, Wien, 1010, \u00d6sterreich", "osm_type": "relation"}, "pk": 2}, {"model": "PersonenDB.tbl_orte", "fields": {"osm_id": 109525, "lon": "16.5333333", "ort_namekurz": "", "lat": "47.5666667", "ort_namelang": "Raiding, Bezirk Oberpullendorf, Burgenland, \u00d6sterreich", "osm_type": "relation"}, "pk": 3}, {"model": "PersonenDB.tbl_orte", "fields": {"osm_id": 109524, "lon": "16.5483316", "ort_namekurz": "NECK", "lat": "47.599776", "ort_namelang": "Neckenmarkt, Bezirk Oberpullendorf, Burgenland, 7311, \u00d6sterreich", "osm_type": "relation"}, "pk": 4}, {"model": "PersonenDB.tbl_orte", "fields": {"osm_id": 17328659, "lon": "16.3725042", "ort_namekurz": "vie", "lat": "48.2083537", "ort_namelang": "Wien, \u00d6sterreich", "osm_type": "node"}, "pk": 5}, {"model": "PersonenDB.tbl_orte", "fields": {"osm_id": 236792, "lon": "16.4158141", "ort_namekurz": "", "lat": "47.4486872", "ort_namelang": "Piringsdorf, Bezirk Oberpullendorf, Burgenland, 7373, \u00d6sterreich", "osm_type": "relation"}, "pk": 6}, {"model": "PersonenDB.tbl_orte", "fields": {"osm_id": 238955, "lon": "16.505547", "ort_namekurz": "", "lat": "47.5012557", "ort_namelang": "Oberpullendorf, Bezirk Oberpullendorf, Burgenland, 7350, \u00d6sterreich", "osm_type": "relation"}, "pk": 7}, {"model": "PersonenDB.tbl_orte", "fields": {"osm_id": 240111982, "lon": "16.2059206", "ort_namekurz": "", "lat": "47.3502046", "ort_namelang": "Obersch\u00fctzen, Bezirk Oberwart, Burgenland, \u00d6sterreich", "osm_type": "node"}, "pk": 8}, {"model": "PersonenDB.tbl_orte", "fields": {"osm_id": 109533, "lon": "16.6248006", "ort_namekurz": "", "lat": "47.6004471", "ort_namelang": "Deutschkreutz, Bezirk Oberpullendorf, Burgenland, \u00d6sterreich", "osm_type": "relation"}, "pk": 9}, {"model": "PersonenDB.tbl_orte", "fields": {"osm_id": 109531, "lon": "16.5475663", "ort_namekurz": "", "lat": "47.5874558", "ort_namelang": "Horitschon, Bezirk Oberpullendorf, Burgenland, 7312, \u00d6sterreich", "osm_type": "relation"}, "pk": 30}, {"model": "PersonenDB.tbl_orte", "fields": {"osm_id": 109518, "lon": "16.4991792", "ort_namekurz": "", "lat": "47.572557", "ort_namelang": "Unterfrauenhaid, Bezirk Oberpullendorf, Burgenland, \u00d6sterreich", "osm_type": "relation"}, "pk": 32}, {"model": "PersonenDB.tbl_orte", "fields": {"osm_id": 109521, "lon": "16.5027466", "ort_namekurz": "", "lat": "47.5887753", "ort_namelang": "Lackendorf, Bezirk Oberpullendorf, Burgenland, 7321, \u00d6sterreich", "osm_type": "relation"}, "pk": 33}, {"model": "PersonenDB.tbl_orte", "fields": {"osm_id": 34103911, "lon": "16.2334951", "ort_namekurz": "", "lat": "48.0085749", "ort_namelang": "Baden, Bezirk Baden, Nieder\u00f6sterreich, 2500, \u00d6sterreich", "osm_type": "node"}, "pk": 35}, {"model": "PersonenDB.tbl_orte", "fields": {"osm_id": 26807229, "lon": "16.2440318", "ort_namekurz": "", "lat": "47.8131761", "ort_namelang": "Wiener Neustadt, Nieder\u00f6sterreich, \u00d6sterreich", "osm_type": "node"}, "pk": 36}, {"model": "PersonenDB.tbl_orte", "fields": {"osm_id": null, "lon": "7.62718 ", "ort_namekurz": "Burgdorf ", "lat": "47.0559 ", "ort_namelang": "Burgdorf BE", "osm_type": ""}, "pk": 38}, {"model": "PersonenDB.tbl_orte", "fields": {"osm_id": null, "lon": "13.253889", "ort_namekurz": "WEISS", "lat": "46.6875", "ort_namelang": "Wei\u00dfbriach ", "osm_type": ""}, "pk": 39}, {"model": "PersonenDB.tbl_orte", "fields": {"osm_id": null, "lon": "13.846111", "ort_namekurz": "", "lat": "46.614722", "ort_namelang": "Villach ", "osm_type": ""}, "pk": 40}, {"model": "PersonenDB.tbl_orte", "fields": {"osm_id": null, "lon": "15.057970", "ort_namekurz": "NEUMY", "lat": "48.141763", "ort_namelang": "Neumarkt an der Ybbs ", "osm_type": ""}, "pk": 41}, {"model": "PersonenDB.tbl_orte", "fields": {"osm_id": null, "lon": "9.835833", "ort_namekurz": "RAGG", "lat": "47.210278", "ort_namelang": "Raggal ", "osm_type": ""}, "pk": 42}, {"model": "PersonenDB.tbl_orte", "fields": {"osm_id": 62428, "lon": "11.5753822", "ort_namekurz": "", "lat": "48.1371079", "ort_namelang": "M\u00fcnchen, Oberbayern, Bayern, Deutschland", "osm_type": "relation"}, "pk": 43}, {"model": "PersonenDB.tbl_orte", "fields": {"osm_id": 107254, "lon": "15.0690038", "ort_namekurz": "", "lat": "48.7934169", "ort_namelang": "Schrems, Gm\u00fcnd, Nieder\u00f6sterreich, \u00d6sterreich", "osm_type": "relation"}, "pk": 44}, {"model": "PersonenDB.tbl_orte", "fields": {"osm_id": 2901512895, "lon": "15.3295132", "ort_namekurz": "ALLE", "lat": "48.6956583", "ort_namelang": "Allentsteig, Zwettl, Nieder\u00f6sterreich, 3804, \u00d6sterreich", "osm_type": "node"}, "pk": 45}, {"model": "PersonenDB.tbl_orte", "fields": {"osm_id": 35527189, "lon": "16.5895025", "ort_namekurz": "GAWE", "lat": "48.4779777", "ort_namelang": "Gaweinstal, Bezirk Mistelbach, Nieder\u00f6sterreich, \u00d6sterreich", "osm_type": "node"}, "pk": 48}, {"model": "PersonenDB.tbl_orte", "fields": {"osm_id": 2135966, "lon": "13.0464806", "ort_namekurz": "", "lat": "47.7981346", "ort_namelang": "Salzburg, 5020, \u00d6sterreich", "osm_type": "relation"}, "pk": 49}, {"model": "PersonenDB.tbl_orte", "fields": {"osm_id": 109163, "lon": "15.4385716", "ort_namekurz": "", "lat": "47.0702563", "ort_namelang": "Graz, Steiermark, \u00d6sterreich", "osm_type": "relation"}, "pk": 50}, {"model": "PersonenDB.tbl_orte", "fields": {"osm_id": 86538, "lon": "13.0580124927781", "ort_namekurz": "", "lat": "47.8027782", "ort_namelang": "Salzburg, 5020, \u00d6sterreich", "osm_type": "relation"}, "pk": 51}, {"model": "PersonenDB.tbl_orte", "fields": {"osm_id": 540252, "lon": "13.2325411", "ort_namekurz": "H\u00dcTT", "lat": "47.1761222", "ort_namelang": "H\u00fcttschlag, Sankt Johann im Pongau, Salzburg, 5612, \u00d6sterreich", "osm_type": "relation"}, "pk": 52}, {"model": "PersonenDB.tbl_orte", "fields": {"osm_id": 539295, "lon": "13.1542777", "ort_namekurz": "", "lat": "47.3291614", "ort_namelang": "Sankt Veit im Pongau, Sankt Johann im Pongau, Salzburg, 5621, \u00d6sterreich", "osm_type": "relation"}, "pk": 53}, {"model": "PersonenDB.tbl_orte", "fields": {"osm_id": 919120, "lon": "13.2013974", "ort_namekurz": "", "lat": "47.2374042", "ort_namelang": "Gro\u00dfarl, Sankt Johann im Pongau, Salzburg, 5611, \u00d6sterreich", "osm_type": "relation"}, "pk": 54}, {"model": "PersonenDB.tbl_orte", "fields": {"osm_id": 503147473, "lon": "14.238695437192", "ort_namekurz": "", "lat": "47.88752295", "ort_namelang": "Leonstein, Gr\u00fcnburg, Kirchdorf an der Krems, Ober\u00f6sterreich, 4594, \u00d6sterreich", "osm_type": "way"}, "pk": 55}, {"model": "PersonenDB.tbl_orte", "fields": {"osm_id": 240114196, "lon": "14.1296505", "ort_namekurz": "STEY", "lat": "47.8061192", "ort_namelang": "Steyrling, Kirchdorf an der Krems, Ober\u00f6sterreich, \u00d6sterreich", "osm_type": "node"}, "pk": 56}, {"model": "PersonenDB.tbl_orte", "fields": {"osm_id": 161963, "lon": "11.0644623283274", "ort_namekurz": "", "lat": "48.5703423", "ort_namelang": "P\u00f6ttmes, Landkreis Aichach-Friedberg, Schwaben, Bayern, Deutschland", "osm_type": "relation"}, "pk": 57}, {"model": "PersonenDB.tbl_orte", "fields": {"osm_id": 161897, "lon": "11.1308417", "ort_namekurz": "", "lat": "48.4589775", "ort_namelang": "Aichach, Landkreis Aichach-Friedberg, Schwaben, Bayern, Deutschland", "osm_type": "relation"}, "pk": 58}, {"model": "PersonenDB.tbl_orte", "fields": {"osm_id": 948186, "lon": "10.7623191", "ort_namekurz": "TARR", "lat": "47.2618485", "ort_namelang": "Tarrenz, Imst, Tirol, 6464, \u00d6sterreich", "osm_type": "relation"}, "pk": 59}, {"model": "PersonenDB.tbl_orte", "fields": {"osm_id": 86575, "lon": "13.0621595", "ort_namekurz": "", "lat": "47.996463", "ort_namelang": "Berndorf bei Salzburg, Salzburg-Umgebung, Salzburg, 5165, \u00d6sterreich", "osm_type": "relation"}, "pk": 60}, {"model": "PersonenDB.tbl_orte", "fields": {"osm_id": 86513, "lon": "12.9422427", "ort_namekurz": "", "lat": "47.9394115", "ort_namelang": "Oberndorf bei Salzburg, Salzburg-Umgebung, Salzburg, 5110, \u00d6sterreich", "osm_type": "relation"}, "pk": 61}, {"model": "PersonenDB.tbl_orte", "fields": {"osm_id": 86358, "lon": "13.3460333", "ort_namekurz": "", "lat": "47.5642319", "ort_namelang": "Abtenau, Hallein, Salzburg, 5441, \u00d6sterreich", "osm_type": "relation"}, "pk": 62}, {"model": "PersonenDB.tbl_orte", "fields": {"osm_id": 86359, "lon": "13.4607833", "ort_namekurz": "", "lat": "47.5875291", "ort_namelang": "Ru\u00dfbach am Pa\u00df Gsch\u00fctt, Hallein, Salzburg, 5442, \u00d6sterreich", "osm_type": "relation"}, "pk": 63}, {"model": "PersonenDB.tbl_orte", "fields": {"osm_id": 34831, "lon": "15.3549817", "ort_namekurz": "", "lat": "47.0792405", "ort_namelang": "Thal, Graz-Umgebung, Steiermark, \u00d6sterreich", "osm_type": "relation"}, "pk": 65}, {"model": "PersonenDB.tbl_orte", "fields": {"osm_id": 400792, "lon": "13.5375533", "ort_namekurz": "TAUF", "lat": "48.4100785", "ort_namelang": "Taufkirchen an der Pram, Sch\u00e4rding, Ober\u00f6sterreich, 4775, \u00d6sterreich", "osm_type": "relation"}, "pk": 66}, {"model": "PersonenDB.tbl_orte", "fields": {"osm_id": 240048248, "lon": "9.7330136", "ort_namekurz": "", "lat": "47.4165382", "ort_namelang": "Dornbirn, Vorarlberg, 6850, \u00d6sterreich", "osm_type": "node"}, "pk": 67}, {"model": "PersonenDB.tbl_orte", "fields": {"osm_id": 3848706, "lon": "14.3585643", "ort_namekurz": "", "lat": "47.524226", "ort_namelang": "Rottenmann, Liezen, Steiermark, 8786, \u00d6sterreich", "osm_type": "relation"}, "pk": 68}, {"model": "PersonenDB.tbl_orte", "fields": {"osm_id": 3956135, "lon": "15.6584579132324", "ort_namekurz": "", "lat": "46.9357743", "ort_namelang": "Kirchbach-Zerlach, S\u00fcdoststeiermark, Steiermark, \u00d6sterreich", "osm_type": "relation"}, "pk": 70}, {"model": "PersonenDB.tbl_orte", "fields": {"osm_id": 240046225, "lon": "12.4882273", "ort_namekurz": "", "lat": "46.9258992", "ort_namelang": "Lerch, Lienz, Tirol, 9961, \u00d6sterreich", "osm_type": "node"}, "pk": 71}, {"model": "PersonenDB.tbl_orte", "fields": {"osm_id": 240107602, "lon": "12.134663", "ort_namekurz": "", "lat": "47.3878469", "ort_namelang": "Kelchsau, Kitzb\u00fchel, Tirol, \u00d6sterreich", "osm_type": "node"}, "pk": 72}, {"model": "PersonenDB.tbl_orte", "fields": {"osm_id": 4848329, "lon": "13.5178105", "ort_namekurz": "", "lat": "46.9440689", "ort_namelang": "Maltatal Stra\u00dfe, Malta, Spittal an der Drau, K\u00e4rnten, 9853, \u00d6sterreich", "osm_type": "way"}, "pk": 73}, {"model": "PersonenDB.tbl_orte", "fields": {"osm_id": 1016862, "lon": "12.0637633", "ort_namekurz": "", "lat": "47.4872718", "ort_namelang": "W\u00f6rgl, Kufstein, Tirol, 6300, \u00d6sterreich", "osm_type": "relation"}, "pk": 74}, {"model": "PersonenDB.tbl_orte", "fields": {"osm_id": 404481, "lon": "13.1787122", "ort_namekurz": "", "lat": "48.2344793", "ort_namelang": "Weng im Innkreis, Braunau am Inn, Ober\u00f6sterreich, 4952, \u00d6sterreich", "osm_type": "relation"}, "pk": 75}, {"model": "PersonenDB.tbl_orte", "fields": {"osm_id": 404502, "lon": "13.1620614", "ort_namekurz": "", "lat": "48.2765455", "ort_namelang": "Mining, Braunau am Inn, Ober\u00f6sterreich, 4962, \u00d6sterreich", "osm_type": "relation"}, "pk": 76}, {"model": "PersonenDB.tbl_orte", "fields": {"osm_id": 1013493, "lon": "14.1573375", "ort_namekurz": "", "lat": "47.8319921", "ort_namelang": "Klaus an der Pyhrnbahn, Kirchdorf an der Krems, Ober\u00f6sterreich, 4564, \u00d6sterreich", "osm_type": "relation"}, "pk": 77}, {"model": "PersonenDB.tbl_orte", "fields": {"osm_id": 240036712, "lon": "15.6259146", "ort_namekurz": "", "lat": "48.3367251", "ort_namelang": "Meidling im Tal, Krems-Land, Nieder\u00f6sterreich, 3508, \u00d6sterreich", "osm_type": "node"}, "pk": 78}, {"model": "PersonenDB.tbl_orte", "fields": {"osm_id": 102614, "lon": "15.4771718", "ort_namekurz": "", "lat": "47.0677409", "ort_namelang": "Waltendorf, Graz, Steiermark, 8047, \u00d6sterreich", "osm_type": "relation"}, "pk": 79}, {"model": "PersonenDB.tbl_orte", "fields": {"osm_id": 3908721, "lon": "15.6723805", "ort_namekurz": "", "lat": "47.6053538", "ort_namelang": "M\u00fcrzzuschlag, Bruck-M\u00fcrzzuschlag, Steiermark, 8680, \u00d6sterreich", "osm_type": "relation"}, "pk": 80}, {"model": "PersonenDB.tbl_orte", "fields": {"osm_id": 240034912, "lon": "15.9626196", "ort_namekurz": "", "lat": "46.9399784", "ort_namelang": "Pertlstein, S\u00fcdoststeiermark, Steiermark, 8334, \u00d6sterreich", "osm_type": "node"}, "pk": 81}, {"model": "PersonenDB.tbl_orte", "fields": {"osm_id": 34884, "lon": "15.4869681", "ort_namekurz": "", "lat": "46.9969426", "ort_namelang": "G\u00f6ssendorf, Graz-Umgebung, Steiermark, 8077, \u00d6sterreich", "osm_type": "relation"}, "pk": 82}, {"model": "PersonenDB.tbl_orte", "fields": {"osm_id": 36729, "lon": "15.710006557613", "ort_namekurz": "", "lat": "47.106751", "ort_namelang": "Gleisdorf, Weiz, Steiermark, 8200, \u00d6sterreich", "osm_type": "relation"}, "pk": 83}, {"model": "PersonenDB.tbl_orte", "fields": {"osm_id": 34734, "lon": "14.4857262", "ort_namekurz": "", "lat": "47.487348", "ort_namelang": "Trieben, Bezirk Liezen, Steiermark, 8784, \u00d6sterreich", "osm_type": "relation"}, "pk": 84}, {"model": "PersonenDB.tbl_orte", "fields": {"osm_id": 240058233, "lon": "15.0246491", "ort_namekurz": "", "lat": "47.2895418", "ort_namelang": "Hinterlobming, Leoben, Steiermark, 8713, \u00d6sterreich", "osm_type": "node"}, "pk": 85}, {"model": "PersonenDB.tbl_orte", "fields": {"osm_id": 3913910, "lon": "16.0816815", "ort_namekurz": "", "lat": "47.0499925", "ort_namelang": "F\u00fcrstenfeld, Bezirk Hartberg-F\u00fcrstenfeld, Steiermark, 8280, \u00d6sterreich", "osm_type": "relation"}, "pk": 86}, {"model": "PersonenDB.tbl_orte", "fields": {"osm_id": 170442422, "lon": "14.5861141", "ort_namekurz": "", "lat": "47.2208788", "ort_namelang": "P\u00f6ls, Murtal, Steiermark, 8761, \u00d6sterreich", "osm_type": "node"}, "pk": 87}, {"model": "PersonenDB.tbl_orte", "fields": {"osm_id": 49984, "lon": "15.0942137", "ort_namekurz": "", "lat": "47.3827417", "ort_namelang": "Leoben, Steiermark, \u00d6sterreich", "osm_type": "relation"}, "pk": 88}, {"model": "PersonenDB.tbl_orte", "fields": {"osm_id": 1675676, "lon": "14.3551346", "ort_namekurz": "", "lat": "46.2405482", "ort_namelang": "Krainburg, Statistische Region Oberkrain, Slowenien", "osm_type": "relation"}, "pk": 89}, {"model": "PersonenDB.tbl_orte", "fields": {"osm_id": 1674026139, "lon": "9.1800132", "ort_namekurz": "", "lat": "48.7784485", "ort_namelang": "Stuttgart, Regierungsbezirk Stuttgart, Baden-W\u00fcrttemberg, 70173, Deutschland", "osm_type": "node"}, "pk": 90}, {"model": "PersonenDB.tbl_orte", "fields": {"osm_id": 29777988, "lon": "14.3079604", "ort_namekurz": "", "lat": "46.6228162", "ort_namelang": "Klagenfurt, Klagenfurt am W\u00f6rthersee, K\u00e4rnten, 9020, \u00d6sterreich", "osm_type": "node"}, "pk": 91}, {"model": "PersonenDB.tbl_orte", "fields": {"osm_id": 240079480, "lon": "14.4191276", "ort_namekurz": "", "lat": "48.0390046", "ort_namelang": "Steyr, Ober\u00f6sterreich, 4402, \u00d6sterreich", "osm_type": "node"}, "pk": 92}, {"model": "PersonenDB.tbl_orte", "fields": {"osm_id": 102590, "lon": "15.42737", "ort_namekurz": "", "lat": "47.0612224", "ort_namelang": "Gries, Graz, Steiermark, \u00d6sterreich", "osm_type": "relation"}, "pk": 93}, {"model": "PersonenDB.tbl_orte", "fields": {"osm_id": 34845573, "lon": "15.4998228", "ort_namekurz": "", "lat": "46.9728396", "ort_namelang": "Fernitz, Graz-Umgebung, Steiermark, 8072, \u00d6sterreich", "osm_type": "node"}, "pk": 94}, {"model": "PersonenDB.tbl_orte", "fields": {"osm_id": 1702499, "lon": "17.1597440625", "ort_namekurz": "", "lat": "48.1359085", "ort_namelang": "Bratislava, Bratislavaer Landschaftsverband, Slowakei", "osm_type": "relation"}, "pk": 95}, {"model": "PersonenDB.tbl_orte", "fields": {"osm_id": 764489519, "lon": "15.320205", "ort_namekurz": "", "lat": "47.1298891", "ort_namelang": "Gratwein, Graz-Umgebung, Steiermark, 8112, \u00d6sterreich", "osm_type": "node"}, "pk": 96}, {"model": "PersonenDB.tbl_orte", "fields": {"osm_id": 3832571, "lon": "14.2420508", "ort_namekurz": "", "lat": "47.567685", "ort_namelang": "Liezen, Bezirk Liezen, Steiermark, 8940, \u00d6sterreich", "osm_type": "relation"}, "pk": 97}, {"model": "PersonenDB.tbl_orte", "fields": {"osm_id": 68171, "lon": "13.6239333", "ort_namekurz": "", "lat": "47.7115299", "ort_namelang": "Bad Ischl, Gmunden, Ober\u00f6sterreich, 4820, \u00d6sterreich", "osm_type": "relation"}, "pk": 98}, {"model": "PersonenDB.tbl_orte", "fields": {"osm_id": 60687, "lon": "13.8003048", "ort_namekurz": "", "lat": "47.9185855", "ort_namelang": "Gmunden, Ober\u00f6sterreich, 4810, \u00d6sterreich", "osm_type": "relation"}, "pk": 99}, {"model": "PersonenDB.tbl_orte", "fields": {"osm_id": 3825396, "lon": "15.5533088", "ort_namekurz": "", "lat": "46.7213788", "ort_namelang": "Gamlitz, Leibnitz, Steiermark, 8462, \u00d6sterreich", "osm_type": "relation"}, "pk": 100}, {"model": "PersonenDB.tbl_orte", "fields": {"osm_id": 6739986, "lon": "15.717653084339", "ort_namekurz": "", "lat": "46.92151225", "ort_namelang": "Sankt Stefan im Rosental, S\u00fcdoststeiermark, Steiermark, 8083, \u00d6sterreich", "osm_type": "relation"}, "pk": 101}, {"model": "PersonenDB.tbl_orte", "fields": {"osm_id": 77102, "lon": "10.7406982", "ort_namekurz": "", "lat": "47.2381536", "ort_namelang": "Imst, Tirol, 6460, \u00d6sterreich", "osm_type": "relation"}, "pk": 102}, {"model": "PersonenDB.tbl_orte", "fields": {"osm_id": 240063303, "lon": "15.8281127", "ort_namekurz": "", "lat": "47.457965", "ort_namelang": "Arzberg, Bezirk Hartberg-F\u00fcrstenfeld, Steiermark, 8253, \u00d6sterreich", "osm_type": "node"}, "pk": 103}, {"model": "PersonenDB.tbl_orte", "fields": {"osm_id": 34842, "lon": "15.4022902", "ort_namekurz": "", "lat": "47.2178173", "ort_namelang": "Semriach, Graz-Umgebung, Steiermark, 8102, \u00d6sterreich", "osm_type": "relation"}, "pk": 104}, {"model": "PersonenDB.tbl_orte", "fields": {"osm_id": 102661, "lon": "15.4066726", "ort_namekurz": "", "lat": "47.0353729", "ort_namelang": "Stra\u00dfgang, Graz, Steiermark, 8054, \u00d6sterreich", "osm_type": "relation"}, "pk": 105}, {"model": "PersonenDB.tbl_orte", "fields": {"osm_id": 240085769, "lon": "15.407925", "ort_namekurz": "", "lat": "47.1163916", "ort_namelang": "Sankt Veit, Andritz, Graz, Steiermark, 8046, \u00d6sterreich", "osm_type": "node"}, "pk": 106}, {"model": "PersonenDB.tbl_orte", "fields": {"osm_id": 122781767, "lon": "15.3908008022047", "ort_namekurz": "", "lat": "47.0201957", "ort_namelang": "Sankt Florian, Florianibergweg, Webling, Stra\u00dfgang, Graz, Steiermark, 8054, \u00d6sterreich", "osm_type": "way"}, "pk": 107}, {"model": "PersonenDB.tbl_orte", "fields": {"osm_id": 3853280, "lon": "14.4260465", "ort_namekurz": "", "lat": "47.073124", "ort_namelang": "Neumarkt in der Steiermark, Murau, Steiermark, 8820, \u00d6sterreich", "osm_type": "relation"}, "pk": 108}, {"model": "PersonenDB.tbl_orte", "fields": {"osm_id": 240116529, "lon": "15.8475761", "ort_namekurz": "", "lat": "47.4180241", "ort_namelang": "Vornholz, Vorau, Bezirk Hartberg-F\u00fcrstenfeld, Steiermark, 8250, \u00d6sterreich", "osm_type": "node"}, "pk": 109}, {"model": "PersonenDB.tbl_orte", "fields": {"osm_id": 3931168, "lon": "15.8883404", "ort_namekurz": "", "lat": "47.406214", "ort_namelang": "Vorau, Bezirk Hartberg-F\u00fcrstenfeld, Steiermark, 8250, \u00d6sterreich", "osm_type": "relation"}, "pk": 110}, {"model": "PersonenDB.tbl_orte", "fields": {"osm_id": 36855, "lon": "16.0516461", "ort_namekurz": "", "lat": "47.116084", "ort_namelang": "Bad Blumau, Bezirk Hartberg-F\u00fcrstenfeld, Steiermark, 8283, \u00d6sterreich", "osm_type": "relation"}, "pk": 111}, {"model": "PersonenDB.tbl_orte", "fields": {"osm_id": 5100340989, "lon": "15.5083538", "ort_namekurz": "", "lat": "47.5354757", "ort_namelang": "Mitterdorf im M\u00fcrztal, Bruck-M\u00fcrzzuschlag, Steiermark, 8662, \u00d6sterreich", "osm_type": "node"}, "pk": 112}, {"model": "PersonenDB.tbl_orte", "fields": {"osm_id": 240106228, "lon": "16.2127977", "ort_namekurz": "", "lat": "47.0248296", "ort_namelang": "Zahling, Jennersdorf, Burgenland, 7562, \u00d6sterreich", "osm_type": "node"}, "pk": 113}, {"model": "PersonenDB.tbl_orte", "fields": {"osm_id": 154493, "lon": "16.1412906", "ort_namekurz": "", "lat": "46.9371733", "ort_namelang": "Jennersdorf, Burgenland, 8380, \u00d6sterreich", "osm_type": "relation"}, "pk": 114}, {"model": "PersonenDB.tbl_orte", "fields": {"osm_id": 110313, "lon": "13.8103817", "ort_namekurz": "", "lat": "47.1261065", "ort_namelang": "Tamsweg, Tamsweg - Lungau, Salzburg, 5580, \u00d6sterreich", "osm_type": "relation"}, "pk": 115}, {"model": "PersonenDB.tbl_orte", "fields": {"osm_id": 240074411, "lon": "14.9166667", "ort_namekurz": "", "lat": "47.4166667", "ort_namelang": "Leoben, Kammern im Liesingtal, Leoben, Steiermark, 8773, \u00d6sterreich", "osm_type": "node"}, "pk": 116}, {"model": "PersonenDB.tbl_orte", "fields": {"osm_id": 324361011, "lon": "13.971821", "ort_namekurz": "", "lat": "47.1886963", "ort_namelang": "Krakauebene, Murau, Steiermark, 8854, \u00d6sterreich", "osm_type": "node"}, "pk": 117}, {"model": "PersonenDB.tbl_orte", "fields": {"osm_id": 51335, "lon": "15.1474771", "ort_namekurz": "", "lat": "47.0504742", "ort_namelang": "Voitsberg, Steiermark, 8570, \u00d6sterreich", "osm_type": "relation"}, "pk": 118}, {"model": "PersonenDB.tbl_orte", "fields": {"osm_id": 34885, "lon": "15.4805607086233", "ort_namekurz": "", "lat": "46.962282", "ort_namelang": "Kalsdorf, Graz-Umgebung, Steiermark, 8401, \u00d6sterreich", "osm_type": "relation"}, "pk": 119}, {"model": "PersonenDB.tbl_orte", "fields": {"osm_id": 3823411, "lon": "15.5145485", "ort_namekurz": "", "lat": "46.8873498", "ort_namelang": "Wildon, Leibnitz, Steiermark, 8410, \u00d6sterreich", "osm_type": "relation"}, "pk": 120}, {"model": "PersonenDB.tbl_orte", "fields": {"osm_id": 34838, "lon": "15.2189739", "ort_namekurz": "", "lat": "47.1026794", "ort_namelang": "Stiwoll, Graz-Umgebung, Steiermark, \u00d6sterreich", "osm_type": "relation"}, "pk": 121}, {"model": "PersonenDB.tbl_orte", "fields": {"osm_id": 34903, "lon": "15.4909271", "ort_namekurz": "", "lat": "46.9247164", "ort_namelang": "Werndorf, Graz-Umgebung, Steiermark, 8402, \u00d6sterreich", "osm_type": "relation"}, "pk": 122}, {"model": "PersonenDB.tbl_orte", "fields": {"osm_id": 3820052, "lon": "15.5407005", "ort_namekurz": "", "lat": "46.7804762", "ort_namelang": "Leibnitz, Steiermark, 8430, \u00d6sterreich", "osm_type": "relation"}, "pk": 123}, {"model": "PersonenDB.tbl_orte", "fields": {"osm_id": 3785485, "lon": "15.3162613", "ort_namekurz": "", "lat": "46.8233051", "ort_namelang": "Gro\u00df St.Florian, Deutschlandsberg, Steiermark, 8522, \u00d6sterreich", "osm_type": "relation"}, "pk": 124}, {"model": "PersonenDB.tbl_orte", "fields": {"osm_id": 159738297, "lon": "14.1853361972049", "ort_namekurz": "", "lat": "47.84814365", "ort_namelang": "Frauenstein, Molln, Kirchdorf an der Krems, Ober\u00f6sterreich, 4591, \u00d6sterreich", "osm_type": "way"}, "pk": 125}, {"model": "PersonenDB.tbl_orte", "fields": {"osm_id": 185480462, "lon": "14.4008011", "ort_namekurz": "", "lat": "47.0993139", "ort_namelang": "Mariahof, Murau, Steiermark, 8812, \u00d6sterreich", "osm_type": "node"}, "pk": 126}, {"model": "PersonenDB.tbl_orte", "fields": {"osm_id": 2382900, "lon": "16.5134741945203", "ort_namekurz": "", "lat": "48.36058245", "ort_namelang": "Obersdorf, Gemeinde Wolkersdorf im Weinviertel, Bezirk Mistelbach, Nieder\u00f6sterreich, 2120, \u00d6sterreich", "osm_type": "relation"}, "pk": 127}, {"model": "PersonenDB.tbl_orte", "fields": {"osm_id": 152284770, "lon": "16.5706778", "ort_namekurz": "", "lat": "48.5575582", "ort_namelang": "Lanzendorf, Bezirk Mistelbach, Nieder\u00f6sterreich, 2130, \u00d6sterreich", "osm_type": "node"}, "pk": 128}, {"model": "PersonenDB.tbl_orte", "fields": {"osm_id": 265392799, "lon": "15.96469", "ort_namekurz": "", "lat": "47.6046", "ort_namelang": "Ofenbach, Kirchberg am Wechsel, Bezirk Neunkirchen, Nieder\u00f6sterreich, 2880, \u00d6sterreich", "osm_type": "way"}, "pk": 129}, {"model": "PersonenDB.tbl_orte", "fields": {"osm_id": 240122078, "lon": "47.6757858", "ort_namekurz": "", "lat": "46.8253274", "ort_namelang": "Gloggnitz, Bezirk Neunkirchen, Nieder\u00f6sterreich, 2640, \u00d6sterreich ", "osm_type": "node"}, "pk": 130}, {"model": "PersonenDB.tbl_orte", "fields": {"osm_id": 305583, "lon": "16.8008294", "ort_namekurz": "", "lat": "47.7610752", "ort_namelang": "Illmitz, Bezirk Neusiedl am See, Burgenland, 7142, \u00d6sterreich", "osm_type": "relation"}, "pk": 131}, {"model": "PersonenDB.tbl_orte", "fields": {"osm_id": 29749394, "lon": "16.0203281", "ort_namekurz": "", "lat": "47.743142", "ort_namelang": "Flatz, Bezirk Neunkirchen, Nieder\u00f6sterreich, 2630, \u00d6sterreich", "osm_type": "node"}, "pk": 132}, {"model": "PersonenDB.tbl_orte", "fields": {"osm_id": 60240127, "lon": "15.6946065", "ort_namekurz": "", "lat": "48.2843295", "ort_namelang": "Herzogenburg, Bezirk St. P\u00f6lten, Nieder\u00f6sterreich, 3130, \u00d6sterreich", "osm_type": "node"}, "pk": 133}, {"model": "PersonenDB.tbl_orte", "fields": {"osm_id": 105619, "lon": "16.8332299", "ort_namekurz": "", "lat": "47.7432657", "ort_namelang": "Apetlon, Bezirk Neusiedl am See, Burgenland, 7143, \u00d6sterreich", "osm_type": "relation"}, "pk": 134}, {"model": "PersonenDB.tbl_orte", "fields": {"osm_id": 539293, "lon": "13.151022", "ort_namekurz": "", "lat": "47.3211088", "ort_namelang": "Schwarzach im Pongau, Sankt Johann im Pongau, Salzburg, 5620, \u00d6sterreich", "osm_type": "relation"}, "pk": 135}, {"model": "PersonenDB.tbl_orte", "fields": {"osm_id": 87173, "lon": "14.1244169", "ort_namekurz": "", "lat": "47.905194", "ort_namelang": "Kirchdorf an der Krems, Ober\u00f6sterreich, 4560, \u00d6sterreich", "osm_type": "relation"}, "pk": 136}, {"model": "PersonenDB.tbl_orte", "fields": {"osm_id": 361654, "lon": "13.1833927", "ort_namekurz": "", "lat": "48.0681603", "ort_namelang": "Munderfing, Braunau am Inn, Ober\u00f6sterreich, 5222, \u00d6sterreich", "osm_type": "relation"}, "pk": 137}, {"model": "PersonenDB.tbl_orte", "fields": {"osm_id": 80119, "lon": "11.6920388598186", "ort_namekurz": "", "lat": "47.1289628", "ort_namelang": "Tux, Schwaz, Tirol, 6293, \u00d6sterreich", "osm_type": "relation"}, "pk": 138}, {"model": "PersonenDB.tbl_orte", "fields": {"osm_id": 533304, "lon": "15.2392097", "ort_namekurz": "", "lat": "48.9296886", "ort_namelang": "Kautzen, Bezirk Waidhofen an der Thaya, Nieder\u00f6sterreich, 3851, \u00d6sterreich", "osm_type": "relation"}, "pk": 139}, {"model": "PersonenDB.tbl_orte", "fields": {"osm_id": 446160, "lon": "15.3783421592199", "ort_namekurz": "", "lat": "48.8475066", "ort_namelang": "Waidhofen an der Thaya", "osm_type": "relation"}, "pk": 140}, {"model": "PersonenDB.tbl_orte", "fields": {"osm_id": 119759840, "lon": "15.8609985", "ort_namekurz": "", "lat": "48.7048968", "ort_namelang": "Pulkau, Bezirk Hollabrunn, Nieder\u00f6sterreich, 3741, \u00d6sterreich ", "osm_type": "node"}, "pk": 141}, {"model": "PersonenDB.tbl_orte", "fields": {"osm_id": 45018840, "lon": "15.6563147", "ort_namekurz": "", "lat": "48.6636596", "ort_namelang": "Horn,Horn,Nider\u00f6sterreich,\u00d6sterreich", "osm_type": "node"}, "pk": 142}, {"model": "PersonenDB.tbl_orte", "fields": {"osm_id": 44905294, "lon": "15.8162695", "ort_namekurz": "", "lat": "48.6432222", "ort_namelang": "Eggenburg", "osm_type": "node"}, "pk": 143}, {"model": "PersonenDB.tbl_orte", "fields": {"osm_id": 174938313, "lon": "15.7400019", "ort_namekurz": "", "lat": "48.7061229", "ort_namelang": "Brugg, Sigmundsherberg,Horn,Nieder\u00f6sterreich,\u00d6sterreich,Europe ", "osm_type": "node"}, "pk": 144}, {"model": "PersonenDB.tbl_orte", "fields": {"osm_id": 3858109, "lon": "14.2809985", "ort_namekurz": "", "lat": "47.2032044", "ort_namelang": "Oberw\u00f6lz, Murau, Steiermark, 8832, \u00d6sterreich", "osm_type": "relation"}, "pk": 145}, {"model": "PersonenDB.tbl_orte", "fields": {"osm_id": 240030362, "lon": "11.8094546", "ort_namekurz": "", "lat": "47.0998797", "ort_namelang": "Ginzling, Schwaz, Tirol, 6295, \u00d6sterreich", "osm_type": "node"}, "pk": 146}, {"model": "PersonenDB.tbl_orte", "fields": {"osm_id": 80186, "lon": "11.8835869", "ort_namekurz": "", "lat": "47.2333511", "ort_namelang": "Zell am Ziller, Schwaz, Tirol, \u00d6sterreich", "osm_type": "relation"}, "pk": 147}, {"model": "PersonenDB.tbl_orte", "fields": {"osm_id": 1539290568, "lon": "11.8836035", "ort_namekurz": "", "lat": "47.2084073", "ort_namelang": "Ramsberg, Schwaz, Tirol, 6284, \u00d6sterreich", "osm_type": "node"}, "pk": 148}, {"model": "PersonenDB.tbl_orte", "fields": {"osm_id": 240032866, "lon": "11.7096073", "ort_namekurz": "", "lat": "47.3502187", "ort_namelang": "Schwaz, Tirol, 6130, \u00d6sterreich", "osm_type": "node"}, "pk": 149}, {"model": "PersonenDB.tbl_orte", "fields": {"osm_id": 76440, "lon": "9.9088436", "ort_namekurz": "", "lat": "47.2474775", "ort_namelang": "Fontanella, Bludenz, Vorarlberg, 6733, \u00d6sterreich", "osm_type": "relation"}, "pk": 150}, {"model": "PersonenDB.tbl_orte", "fields": {"osm_id": 555678, "lon": "13.7351465", "ort_namekurz": "", "lat": "48.1438731", "ort_namelang": "Gaspoltshofen, Grieskirchen, Ober\u00f6sterreich, 4673, \u00d6sterreich", "osm_type": "relation"}, "pk": 151}, {"model": "PersonenDB.tbl_orte", "fields": {"osm_id": 26748998, "lon": "14.0244047", "ort_namekurz": "", "lat": "48.1566957", "ort_namelang": "Wels, Ober\u00f6sterreich, 4601, \u00d6sterreich", "osm_type": "node"}, "pk": 152}, {"model": "PersonenDB.tbl_orte", "fields": {"osm_id": 556710, "lon": "13.826192", "ort_namekurz": "", "lat": "48.235011", "ort_namelang": "Grieskirchen, Ober\u00f6sterreich, 4710, \u00d6sterreich", "osm_type": "relation"}, "pk": 153}, {"model": "PersonenDB.tbl_orte", "fields": {"osm_id": 415780, "lon": "13.48839", "ort_namekurz": "", "lat": "48.2085868", "ort_namelang": "Ried im Innkreis, Ober\u00f6sterreich, 4910, \u00d6sterreich", "osm_type": "relation"}, "pk": 154}, {"model": "PersonenDB.tbl_orte", "fields": {"osm_id": 240087619, "lon": "10.9741543", "ort_namekurz": "", "lat": "47.0402977", "ort_namelang": "Huben, Imst, Tirol, 6444, \u00d6sterreich", "osm_type": "node"}, "pk": 155}, {"model": "PersonenDB.tbl_orte", "fields": {"osm_id": 77764, "lon": "10.9298872", "ort_namekurz": "", "lat": "47.1379396", "ort_namelang": "Umhausen, Imst, Tirol, 6441, \u00d6sterreich", "osm_type": "relation"}, "pk": 156}, {"model": "PersonenDB.tbl_orte", "fields": {"osm_id": 34840064, "lon": "11.3927685", "ort_namekurz": "", "lat": "47.2654296", "ort_namelang": "Innsbruck, Tirol, 6020, \u00d6sterreich", "osm_type": "node"}, "pk": 157}, {"model": "PersonenDB.tbl_orte", "fields": {"osm_id": 1020766, "lon": "12.5208519", "ort_namekurz": "", "lat": "46.9218", "ort_namelang": "Hopfgarten in Defereggen, Lienz, Tirol, 9961, \u00d6sterreich", "osm_type": "relation"}, "pk": 158}, {"model": "PersonenDB.tbl_orte", "fields": {"osm_id": 240115278, "lon": "12.5", "ort_namekurz": "", "lat": "46.9", "ort_namelang": "Lienz, Hopfgarten in Defereggen, Lienz, Tirol, 9961, \u00d6sterreich", "osm_type": "node"}, "pk": 159}, {"model": "PersonenDB.tbl_orte", "fields": {"osm_id": 75302, "lon": "9.7029357", "ort_namekurz": "", "lat": "47.2659118", "ort_namelang": "Laterns, Feldkirch, Vorarlberg, \u00d6sterreich", "osm_type": "relation"}, "pk": 160}, {"model": "PersonenDB.tbl_orte", "fields": {"osm_id": 1014077, "lon": "13.8156977355673", "ort_namekurz": "", "lat": "47.22827505", "ort_namelang": "Lessach, Tamsweg - Lungau, Salzburg, 5575, \u00d6sterreich", "osm_type": "relation"}, "pk": 161}, {"model": "PersonenDB.tbl_orte", "fields": {"osm_id": 240096226, "lon": "13.8090434", "ort_namekurz": "", "lat": "47.1433329", "ort_namelang": "W\u00f6lting, Tamsweg - Lungau, Salzburg, 5580, \u00d6sterreich", "osm_type": "node"}, "pk": 162}, {"model": "PersonenDB.tbl_orte", "fields": {"osm_id": 76327, "lon": "9.920538", "ort_namekurz": "", "lat": "47.4503224", "ort_namelang": "Lingenau, Bregenz, Vorarlberg, 6951, \u00d6sterreich", "osm_type": "relation"}, "pk": 163}, {"model": "PersonenDB.tbl_orte", "fields": {"osm_id": 75073, "lon": "9.7472924", "ort_namekurz": "", "lat": "47.5025779", "ort_namelang": "Bregenz, Vorarlberg, \u00d6sterreich", "osm_type": "relation"}, "pk": 164}, {"model": "PersonenDB.tbl_orte", "fields": {"osm_id": 29876866, "lon": "12.8568612", "ort_namekurz": "", "lat": "47.4299487", "ort_namelang": "Saalfelden, Saalfelden am Steinernen Meer, Zell am See, Salzburg, 5760, \u00d6sterreich", "osm_type": "way"}, "pk": 165}, {"model": "PersonenDB.tbl_orte", "fields": {"osm_id": 2110418, "lon": "12.9367868120259", "ort_namekurz": "", "lat": "47.4584029", "ort_namelang": "Steinernes Meer, Maria Alm am Steinernen Meer, Zell am See, Salzburg, 5761, \u00d6sterreich", "osm_type": "relation"}, "pk": 166}, {"model": "PersonenDB.tbl_orte", "fields": {"osm_id": 240089697, "lon": "13.7572465", "ort_namekurz": "", "lat": "48.2284268", "ort_namelang": "Weng, Grieskirchen, Ober\u00f6sterreich, 4716, \u00d6sterreich", "osm_type": "node"}, "pk": 167}, {"model": "PersonenDB.tbl_orte", "fields": {"osm_id": 86330, "lon": "13.039506", "ort_namekurz": "", "lat": "48.253136", "ort_namelang": "Braunau am Inn, Ober\u00f6sterreich, 5280, \u00d6sterreich", "osm_type": "relation"}, "pk": 168}, {"model": "PersonenDB.tbl_orte", "fields": {"osm_id": 108847, "lon": "13.4963308", "ort_namekurz": "", "lat": "46.7982211", "ort_namelang": "Spittal an der Drau, K\u00e4rnten, 9800, \u00d6sterreich", "osm_type": "relation"}, "pk": 169}, {"model": "PersonenDB.tbl_orte", "fields": {"osm_id": 240052146, "lon": "13.5359844", "ort_namekurz": "", "lat": "46.9065611", "ort_namelang": "Gm\u00fcnd, Spittal an der Drau, K\u00e4rnten, 9853, \u00d6sterreich", "osm_type": "node"}, "pk": 170}, {"model": "PersonenDB.tbl_orte", "fields": {"osm_id": 382675, "lon": "12.9130906", "ort_namekurz": "", "lat": "46.9216153", "ort_namelang": "M\u00f6rtschach, Spittal an der Drau, K\u00e4rnten, \u00d6sterreich", "osm_type": "relation"}, "pk": 171}, {"model": "PersonenDB.tbl_orte", "fields": {"osm_id": 29777261, "lon": "13.8500268", "ort_namekurz": "", "lat": "46.6167284", "ort_namelang": "Villach, K\u00e4rnten, 9501, \u00d6sterreich", "osm_type": "node"}, "pk": 172}, {"model": "PersonenDB.tbl_orte", "fields": {"osm_id": 156566, "lon": "12.7681269", "ort_namekurz": "", "lat": "46.8298662", "ort_namelang": "Lienz, Tirol, 9900, \u00d6sterreich", "osm_type": "relation"}, "pk": 173}, {"model": "PersonenDB.tbl_orte", "fields": {"osm_id": 37841, "lon": "10.6109439", "ort_namekurz": "", "lat": "47.4850217", "ort_namelang": "Nesselw\u00e4ngle, Reutte (Au\u00dferfern), Tirol, 6672, \u00d6sterreich", "osm_type": "relation"}, "pk": 174}, {"model": "PersonenDB.tbl_orte", "fields": {"osm_id": 37467, "lon": "10.7034139", "ort_namekurz": "", "lat": "47.4725497", "ort_namelang": "Ehenbichl, Reutte (Au\u00dferfern), Tirol, \u00d6sterreich", "osm_type": "relation"}, "pk": 175}, {"model": "PersonenDB.tbl_orte", "fields": {"osm_id": 240112892, "lon": "14.0481126", "ort_namekurz": "", "lat": "46.6730872", "ort_namelang": "Pernegg, Feldkirchen, K\u00e4rnten, 9231, \u00d6sterreich", "osm_type": "node"}, "pk": 176}, {"model": "PersonenDB.tbl_orte", "fields": {"osm_id": 240044564, "lon": "14.0500583", "ort_namekurz": "", "lat": "46.6759484", "ort_namelang": "Leiten, Feldkirchen, K\u00e4rnten, 9231, \u00d6sterreich", "osm_type": "node"}, "pk": 177}, {"model": "PersonenDB.tbl_orte", "fields": {"osm_id": 29878373, "lon": "14.5398737", "ort_namekurz": "", "lat": "46.5863713", "ort_namelang": "St. Veit, Sankt Kanzian am Klopeiner See, V\u00f6lkermarkt, K\u00e4rnten, 9123, \u00d6sterreich", "osm_type": "way"}, "pk": 178}, {"model": "PersonenDB.tbl_orte", "fields": {"osm_id": 105954, "lon": "14.8452061", "ort_namekurz": "", "lat": "46.8390583", "ort_namelang": "Wolfsberg, K\u00e4rnten, 9400, \u00d6sterreich", "osm_type": "relation"}, "pk": 179}, {"model": "PersonenDB.tbl_orte", "fields": {"osm_id": 311905, "lon": "14.9163192", "ort_namekurz": "", "lat": "46.7185228", "ort_namelang": "Sankt Georgen im Lavanttal, Wolfsberg, K\u00e4rnten, 9423, \u00d6sterreich", "osm_type": "relation"}, "pk": 180}, {"model": "PersonenDB.tbl_orte", "fields": {"osm_id": 311875, "lon": "14.9559034626765", "ort_namekurz": "", "lat": "46.66477215", "ort_namelang": "Lavam\u00fcnd, Wolfsberg, K\u00e4rnten, 9473, \u00d6sterreich", "osm_type": "relation"}, "pk": 181}, {"model": "PersonenDB.tbl_orte", "fields": {"osm_id": 240069023, "lon": "12.7837097", "ort_namekurz": "", "lat": "46.7019668", "ort_namelang": "Sankt Lorenzen im Lesachtal, Hermagor, K\u00e4rnten, 9654, \u00d6sterreich", "osm_type": "node"}, "pk": 182}, {"model": "PersonenDB.tbl_orte", "fields": {"osm_id": 78416, "lon": "10.6496315", "ort_namekurz": "", "lat": "47.193936", "ort_namelang": "Sch\u00f6nwies, Landeck, Tirol, 6491, \u00d6sterreich", "osm_type": "relation"}, "pk": 183}, {"model": "PersonenDB.tbl_orte", "fields": {"osm_id": 77309, "lon": "10.5890562", "ort_namekurz": "", "lat": "47.1582937", "ort_namelang": "Zams, Landeck, Tirol, 6511, \u00d6sterreich", "osm_type": "relation"}, "pk": 184}, {"model": "PersonenDB.tbl_orte", "fields": {"osm_id": 76675, "lon": "9.9028002", "ort_namekurz": "", "lat": "47.0766944", "ort_namelang": "Tschagguns, Bludenz, Vorarlberg, 6774, \u00d6sterreich", "osm_type": "relation"}, "pk": 185}, {"model": "PersonenDB.tbl_orte", "fields": {"osm_id": 76734, "lon": "9.9197063", "ort_namekurz": "", "lat": "47.0802089", "ort_namelang": "Schruns, Bludenz, Vorarlberg, 6780, \u00d6sterreich", "osm_type": "relation"}, "pk": 186}, {"model": "PersonenDB.tbl_orte", "fields": {"osm_id": 76717, "lon": "9.8219314", "ort_namekurz": "", "lat": "47.153037", "ort_namelang": "Bludenz, Vorarlberg, 6700, \u00d6sterreich", "osm_type": "relation"}, "pk": 187}, {"model": "PersonenDB.tbl_orte", "fields": {"osm_id": 540201, "lon": "14.7819471", "ort_namekurz": "", "lat": "48.4354116", "ort_namelang": "Unterwei\u00dfenbach, Freistadt, Ober\u00f6sterreich, 4273, \u00d6sterreich", "osm_type": "relation"}, "pk": 188}, {"model": "PersonenDB.tbl_orte", "fields": {"osm_id": 446520, "lon": "14.7906625", "ort_namekurz": "", "lat": "48.0266596", "ort_namelang": "Allhartsberg, Bezirk Amstetten, Nieder\u00f6sterreich, 3365, \u00d6sterreich ", "osm_type": "relation"}, "pk": 189}, {"model": "PersonenDB.tbl_orte", "fields": {"osm_id": 3876860, "lon": "15.515058", "ort_namekurz": "", "lat": "47.2819214", "ort_namelang": "Passail, Weiz, Steiermark, 8162, \u00d6sterreich", "osm_type": "relation"}, "pk": 191}, {"model": "PersonenDB.tbl_orte", "fields": {"osm_id": 3879206, "lon": "15.4778033", "ort_namekurz": "", "lat": "47.2864789", "ort_namelang": "Fladnitz an der Teichalm, Weiz, Steiermark, 8163, \u00d6sterreich", "osm_type": "relation"}, "pk": 192}, {"model": "PersonenDB.tbl_orte", "fields": {"osm_id": 898289, "lon": "14.3401869", "ort_namekurz": "", "lat": "47.6646136", "ort_namelang": "Spital am Pyhrn, Kirchdorf an der Krems, Upper Austria, 4582, Austria", "osm_type": "relation"}, "pk": 193}, {"model": "PersonenDB.tbl_orte", "fields": {"osm_id": 3885083, "lon": "15.6221694", "ort_namekurz": "", "lat": "47.2174206", "ort_namelang": "Weiz, Steiermark, 8160, \u00d6sterreich", "osm_type": "relation"}, "pk": 194}, {"model": "PersonenDB.tbl_orte", "fields": {"osm_id": 44853654, "lon": "16.7668257", "ort_namekurz": "Weikendorf", "lat": "48.3442483", "ort_namelang": "Weikendorf", "osm_type": "node"}, "pk": 195}, {"model": "PersonenDB.tbl_orte", "fields": {"osm_id": 866756551, "lon": "15.679021", "ort_namekurz": "Feistritz am Anger", "lat": "47.2634528", "ort_namelang": "Feistritz am Anger", "osm_type": "node"}, "pk": 196}, {"model": "PersonenDB.tbl_orte", "fields": {"osm_id": 3956080, "lon": "", "ort_namekurz": "", "lat": "", "ort_namelang": "Straden", "osm_type": "relation"}, "pk": 197}, {"model": "PersonenDB.tbl_orte", "fields": {"osm_id": 3938886, "lon": "", "ort_namekurz": "", "lat": "", "ort_namelang": "Bad Radkersburg", "osm_type": "relation "}, "pk": 198}, {"model": "PersonenDB.tbl_orte", "fields": {"osm_id": 49976, "lon": "14.98045", "ort_namekurz": "St. Stefan", "lat": "47.3180637", "ort_namelang": "St. Stefan ob Leoben", "osm_type": "relation"}, "pk": 199}, {"model": "PersonenDB.tbl_orte", "fields": {"osm_id": 240023593, "lon": "15.2691626", "ort_namekurz": "", "lat": "46.859096", "ort_namelang": "Rassach, Deutschlandsberg, Steiermark, 8510, \u00d6sterreich", "osm_type": "node"}, "pk": 200}, {"model": "PersonenDB.tbl_orte", "fields": {"osm_id": 3778257, "lon": "15.2137799", "ort_namekurz": "", "lat": "46.8146272", "ort_namelang": "Deutschlandsberg, Steiermark, \u00d6sterreich", "osm_type": "relation"}, "pk": 201}, {"model": "PersonenDB.tbl_orte", "fields": {"osm_id": 240067412, "lon": "15.2959349", "ort_namekurz": "", "lat": "46.8555726", "ort_namelang": "Lasselsdorf, Deutschlandsberg, Steiermark, 8522, \u00d6sterreich", "osm_type": "node"}, "pk": 202}, {"model": "PersonenDB.tbl_orte", "fields": {"osm_id": 240024632, "lon": "15.3248429", "ort_namekurz": "", "lat": "47.5622356", "ort_namelang": "G\u00f6riach, Bezirk Bruck-M\u00fcrzzuschlag, Steiermark, 8625, \u00d6sterreich", "osm_type": "node"}, "pk": 203}, {"model": "PersonenDB.tbl_orte", "fields": {"osm_id": 35099, "lon": "15.3376224", "ort_namekurz": "", "lat": "47.5585706", "ort_namelang": "Turnau, Bezirk Bruck-M\u00fcrzzuschlag, Steiermark, 8625, \u00d6sterreich", "osm_type": "relation"}, "pk": 204}, {"model": "PersonenDB.tbl_orte", "fields": {"osm_id": 446560, "lon": "14.7803806526023", "ort_namekurz": "", "lat": "48.00147565", "ort_namelang": "Gemeinde Sonntagberg, Bezirk Amstetten, Nieder\u00f6sterreich, \u00d6sterreich", "osm_type": "relation"}, "pk": 205}, {"model": "PersonenDB.tbl_orte", "fields": {"osm_id": 240028194, "lon": "15.4604924", "ort_namekurz": "", "lat": "48.2082634", "ort_namelang": "Doppel, Bezirk St. P\u00f6lten, Nieder\u00f6sterreich, 3386, \u00d6sterreich", "osm_type": "node"}, "pk": 206}, {"model": "PersonenDB.tbl_orte", "fields": {"osm_id": 61276046, "lon": "14.7747171", "ort_namekurz": "", "lat": "47.9609716", "ort_namelang": "Waidhofen an der Ybbs, Bezirk Waidhofen an der Ybbs, Nieder\u00f6sterreich, 3340, \u00d6sterreich", "osm_type": "node"}, "pk": 207}, {"model": "PersonenDB.tbl_orte", "fields": {"osm_id": 128084, "lon": "14.8752424", "ort_namekurz": "", "lat": "48.1203262", "ort_namelang": "Amstetten, Bezirk Amstetten, Nieder\u00f6sterreich, \u00d6sterreich", "osm_type": "relation"}, "pk": 208}, {"model": "PersonenDB.tbl_orte", "fields": {"osm_id": 240070972, "lon": "14.7493208", "ort_namekurz": "", "lat": "48.0175311", "ort_namelang": "Glei\u00df, Bezirk Amstetten, Nieder\u00f6sterreich, 3332, \u00d6sterreich", "osm_type": "node"}, "pk": 209}, {"model": "PersonenDB.tbl_orte", "fields": {"osm_id": 373771, "lon": "14.2178482", "ort_namekurz": "", "lat": "47.9920979", "ort_namelang": "Adlwang, Steyr-Land, Ober\u00f6sterreich, 4541, \u00d6sterreich", "osm_type": "relation"}, "pk": 210}, {"model": "PersonenDB.tbl_orte", "fields": {"osm_id": 79747, "lon": "16.5362158649556", "ort_namekurz": "", "lat": "47.83875775", "ort_namelang": "Eisenstadt, Burgenland, \u00d6sterreich", "osm_type": "relation"}, "pk": 211}, {"model": "PersonenDB.tbl_orte", "fields": {"osm_id": 226222552, "lon": "14.1042098", "ort_namekurz": "", "lat": "47.5043706", "ort_namelang": "Irdning, Bezirk Liezen, Steiermark, 8952, \u00d6sterreich", "osm_type": "node"}, "pk": 212}, {"model": "PersonenDB.tbl_orte", "fields": {"osm_id": 144309208, "lon": "14.1336567", "ort_namekurz": "", "lat": "47.4619797", "ort_namelang": "Donnersbach, Irdning-Donnersbachtal, Bezirk Liezen, Steiermark, 8952, \u00d6sterreich", "osm_type": "way"}, "pk": 213}, {"model": "PersonenDB.tbl_orte", "fields": {"osm_id": 3851162, "lon": "13.6867878", "ort_namekurz": "", "lat": "47.3940415", "ort_namelang": "Schladming, Gr\u00f6bming, Bezirk Liezen, Steiermark, 8970, \u00d6sterreich", "osm_type": "relation"}, "pk": 214}, {"model": "PersonenDB.tbl_orte", "fields": {"osm_id": 27257345, "lon": "15.9920653", "ort_namekurz": "", "lat": "47.6098335", "ort_namelang": "Kirchberg am Wechsel, Bezirk Neunkirchen, Nieder\u00f6sterreich, 2880, \u00d6sterreich", "osm_type": "node"}, "pk": 215}, {"model": "PersonenDB.tbl_orte", "fields": {"osm_id": 29039015, "lon": "15.9637563", "ort_namekurz": "", "lat": "47.605073", "ort_namelang": "Ofenbach, Gemeinde Kirchberg am Wechsel, Bezirk Neunkirchen, Nieder\u00f6sterreich, 2880, \u00d6sterreich", "osm_type": "way"}, "pk": 216}, {"model": "PersonenDB.tbl_orte", "fields": {"osm_id": 122563344, "lon": "15.9295214", "ort_namekurz": "", "lat": "47.6166482", "ort_namelang": "Otterthal, Lehen, Gemeinde Kirchberg am Wechsel, Bezirk Neunkirchen, Nieder\u00f6sterreich, 2880, \u00d6sterreich", "osm_type": "way"}, "pk": 217}, {"model": "PersonenDB.tbl_orte", "fields": {"osm_id": 109506, "lon": "16.3566491754489", "ort_namekurz": "", "lat": "47.56303995", "ort_namelang": "Gemeinde Markt Sankt Martin, Bezirk Oberpullendorf, Burgenland, 7341, \u00d6sterreich", "osm_type": "relation"}, "pk": 218}, {"model": "PersonenDB.tbl_orte", "fields": {"osm_id": 3904390, "lon": "15.2721668", "ort_namekurz": "", "lat": "47.4121987", "ort_namelang": "Bruck an der Mur, Bezirk Bruck-M\u00fcrzzuschlag, Steiermark, 8600, \u00d6sterreich", "osm_type": "relation"}, "pk": 219}, {"model": "PersonenDB.tbl_orte", "fields": {"osm_id": 1020213, "lon": "12.4837012", "ort_namekurz": "", "lat": "47.2815157", "ort_namelang": "Mittersill, Zell am See, Salzburg, 5730, \u00d6sterreich", "osm_type": "relation"}, "pk": 220}, {"model": "PersonenDB.tbl_orte", "fields": {"osm_id": 240110582, "lon": "14.8203519", "ort_namekurz": "", "lat": "48.4451865", "ort_namelang": "Greinerschlag, Freistadt, Ober\u00f6sterreich, 4273, \u00d6sterreich", "osm_type": "node"}, "pk": 221}, {"model": "PersonenDB.tbl_orte", "fields": {"osm_id": 105568, "lon": "14.5047566", "ort_namekurz": "", "lat": "48.5112961", "ort_namelang": "Freistadt, Ober\u00f6sterreich, 4240, \u00d6sterreich", "osm_type": "relation"}, "pk": 222}, {"model": "PersonenDB.tbl_orte", "fields": {"osm_id": 77189, "lon": "15.7632457", "ort_namekurz": "noe", "lat": "48.2817813", "ort_namelang": "Nieder\u00f6sterreich, \u00d6sterreich", "osm_type": "relation"}, "pk": 223}, {"model": "PersonenDB.tbl_orte", "fields": {"osm_id": 102303, "lon": "14", "ort_namekurz": "ooe", "lat": "48.25", "ort_namelang": "Ober\u00f6sterreich, \u00d6sterreich", "osm_type": "relation"}, "pk": 224}, {"model": "PersonenDB.tbl_orte", "fields": {"osm_id": 86539, "lon": "13.25", "ort_namekurz": "szb", "lat": "47.4166667", "ort_namelang": "Salzburg, \u00d6sterreich (Bundesland)", "osm_type": "relation"}, "pk": 225}, {"model": "PersonenDB.tbl_orte", "fields": {"osm_id": 35183, "lon": "15.1666665", "ort_namekurz": "stm", "lat": "47.2500001", "ort_namelang": "Steiermark, \u00d6sterreich", "osm_type": "relation"}, "pk": 226}, {"model": "PersonenDB.tbl_orte", "fields": {"osm_id": 52345, "lon": "13.8333333", "ort_namekurz": "ktn", "lat": "46.7500001", "ort_namelang": "K\u00e4rnten, \u00d6sterreich", "osm_type": "relation"}, "pk": 227}, {"model": "PersonenDB.tbl_orte", "fields": {"osm_id": 52343, "lon": "11.5261028", "ort_namekurz": "tir", "lat": "47.223193", "ort_namelang": "Tirol, \u00d6sterreich", "osm_type": "relation"}, "pk": 228}, {"model": "PersonenDB.tbl_orte", "fields": {"osm_id": 74942, "lon": "9.9166667", "ort_namekurz": "vlb", "lat": "47.25", "ort_namelang": "Vorarlberg, \u00d6sterreich", "osm_type": "relation"}, "pk": 229}, {"model": "PersonenDB.tbl_orte", "fields": {"osm_id": 76909, "lon": "16.4166666", "ort_namekurz": "", "lat": "47.5000001", "ort_namelang": "Burgenland, \u00d6sterreich", "osm_type": "relation"}, "pk": 230}]